[
  {"name": "Mumbai", "state": "Maharashtra", "lat": 19.0760, "lon": 72.8777},
  {"name": "Delhi", "state": "Delhi", "lat": 28.6139, "lon": 77.2090},
  {"name": "Bangalore", "state": "Karnataka", "lat": 12.9716, "lon": 77.5946},
  {"name": "Hyderabad", "state": "Telangana", "lat": 17.3850, "lon": 78.4867},
  {"name": "Ahmedabad", "state": "Gujarat", "lat": 23.0225, "lon": 72.5714},
  {"name": "Chennai", "state": "Tamil Nadu", "lat": 13.0827, "lon": 80.2707},
  {"name": "Kolkata", "state": "West Bengal", "lat": 22.5726, "lon": 88.3639},
  {"name": "Surat", "state": "Gujarat", "lat": 21.1702, "lon": 72.8311},
  {"name": "Pune", "state": "Maharashtra", "lat": 18.5204, "lon": 73.8567},
  {"name": "Jaipur", "state": "Rajasthan", "lat": 26.9124, "lon": 75.7873},
  {"name": "Lucknow", "state": "Uttar Pradesh", "lat": 26.8467, "lon": 80.9462},
  {"name": "Kanpur", "state": "Uttar Pradesh", "lat": 26.4499, "lon": 80.3319},
  {"name": "Nagpur", "state": "Maharashtra", "lat": 21.1458, "lon": 79.0882},
  {"name": "Indore", "state": "Madhya Pradesh", "lat": 22.7196, "lon": 75.8577},
  {"name": "Thane", "state": "Maharashtra", "lat": 19.2183, "lon": 72.9781},
  {"name": "Bhopal", "state": "Madhya Pradesh", "lat": 23.2599, "lon": 77.4126},
  {"name": "Visakhapatnam", "state": "Andhra Pradesh", "lat": 17.6868, "lon": 83.2185},
  {"name": "Pimpri-Chinchwad", "state": "Maharashtra", "lat": 18.6298, "lon": 73.7997},
  {"name": "Patna", "state": "Bihar", "lat": 25.5941, "lon": 85.1376},
  {"name": "Vadodara", "state": "Gujarat", "lat": 22.3072, "lon": 73.1812},
  {"name": "Ghaziabad", "state": "Uttar Pradesh", "lat": 28.6692, "lon": 77.4538},
  {"name": "Ludhiana", "state": "Punjab", "lat": 30.9010, "lon": 75.8573},
  {"name": "Agra", "state": "Uttar Pradesh", "lat": 27.1767, "lon": 78.0081},
  {"name": "Nashik", "state": "Maharashtra", "lat": 19.9975, "lon": 73.7898},
  {"name": "Faridabad", "state": "Haryana", "lat": 28.4089, "lon": 77.3178},
  {"name": "Meerut", "state": "Uttar Pradesh", "lat": 28.9845, "lon": 77.7064},
  {"name": "Rajkot", "state": "Gujarat", "lat": 22.3039, "lon": 70.8022},
  {"name": "Kalyan-Dombivli", "state": "Maharashtra", "lat": 19.2437, "lon": 73.1352},
  {"name": "Vasai-Virar", "state": "Maharashtra", "lat": 19.3913, "lon": 72.8397},
  {"name": "Varanasi", "state": "Uttar Pradesh", "lat": 25.3176, "lon": 83.0062},
  {"name": "Srinagar", "state": "Jammu and Kashmir", "lat": 34.0837, "lon": 74.7973},
  {"name": "Aurangabad", "state": "Maharashtra", "lat": 19.8762, "lon": 75.3433},
  {"name": "Dhanbad", "state": "Jharkhand", "lat": 23.7957, "lon": 86.4304},
  {"name": "Amritsar", "state": "Punjab", "lat": 31.6340, "lon": 74.8723},
  {"name": "Navi Mumbai", "state": "Maharashtra", "lat": 19.0330, "lon": 73.0297},
  {"name": "Allahabad", "state": "Uttar Pradesh", "lat": 25.4358, "lon": 81.8463},
  {"name": "Ranchi", "state": "Jharkhand", "lat": 23.3441, "lon": 85.3096},
  {"name": "Howrah", "state": "West Bengal", "lat": 22.5769, "lon": 88.3186},
  {"name": "Jabalpur", "state": "Madhya Pradesh", "lat": 23.1667, "lon": 79.9333},
  {"name": "Gwalior", "state": "Madhya Pradesh", "lat": 26.2183, "lon": 78.1828},
  {"name": "Vijayawada", "state": "Andhra Pradesh", "lat": 16.5062, "lon": 80.6480},
  {"name": "Jodhpur", "state": "Rajasthan", "lat": 26.2389, "lon": 73.0243},
  {"name": "Madurai", "state": "Tamil Nadu", "lat": 9.9252, "lon": 78.1198},
  {"name": "Raipur", "state": "Chhattisgarh", "lat": 21.2514, "lon": 81.6296},
  {"name": "Kota", "state": "Rajasthan", "lat": 25.1761, "lon": 75.8333},
  {"name": "Chandigarh", "state": "Chandigarh", "lat": 30.7333, "lon": 76.7794},
  {"name": "Guwahati", "state": "Assam", "lat": 26.1445, "lon": 91.7362},
  {"name": "Solapur", "state": "Maharashtra", "lat": 17.6599, "lon": 75.9064},
  {"name": "Hubli-Dharwad", "state": "Karnataka", "lat": 15.3647, "lon": 75.1240},
  {"name": "Mysore", "state": "Karnataka", "lat": 12.2958, "lon": 76.6394},
  {"name": "Tiruchirappalli", "state": "Tamil Nadu", "lat": 10.8505, "lon": 78.7047},
  {"name": "Bareilly", "state": "Uttar Pradesh", "lat": 28.3670, "lon": 79.4304},
  {"name": "Aligarh", "state": "Uttar Pradesh", "lat": 27.8974, "lon": 78.0880},
  {"name": "Tiruppur", "state": "Tamil Nadu", "lat": 11.1085, "lon": 77.3411},
  {"name": "Gurgaon", "state": "Haryana", "lat": 28.4595, "lon": 77.0266},
  {"name": "Moradabad", "state": "Uttar Pradesh", "lat": 28.8351, "lon": 78.7733},
  {"name": "Jalandhar", "state": "Punjab", "lat": 31.3260, "lon": 75.5762},
  {"name": "Bhubaneswar", "state": "Odisha", "lat": 20.2961, "lon": 85.8245},
  {"name": "Salem", "state": "Tamil Nadu", "lat": 11.6643, "lon": 78.1460},
  {"name": "Warangal", "state": "Telangana", "lat": 17.9689, "lon": 79.5941},
  {"name": "Guntur", "state": "Andhra Pradesh", "lat": 16.3067, "lon": 80.4365},
  {"name": "Bhiwandi", "state": "Maharashtra", "lat": 19.2813, "lon": 73.0483},
  {"name": "Saharanpur", "state": "Uttar Pradesh", "lat": 29.9640, "lon": 77.5460},
  {"name": "Gorakhpur", "state": "Uttar Pradesh", "lat": 26.7606, "lon": 83.3731},
  {"name": "Bikaner", "state": "Rajasthan", "lat": 28.0229, "lon": 73.3119},
  {"name": "Amravati", "state": "Maharashtra", "lat": 20.9320, "lon": 77.7523},
  {"name": "Noida", "state": "Uttar Pradesh", "lat": 28.5355, "lon": 77.3910},
  {"name": "Jamshedpur", "state": "Jharkhand", "lat": 22.8046, "lon": 86.2029},
  {"name": "Bhilai", "state": "Chhattisgarh", "lat": 21.1938, "lon": 81.3509},
  {"name": "Cuttack", "state": "Odisha", "lat": 20.4625, "lon": 85.8830},
  {"name": "Firozabad", "state": "Uttar Pradesh", "lat": 27.1500, "lon": 78.4000},
  {"name": "Kochi", "state": "Kerala", "lat": 9.9312, "lon": 76.2673},
  {"name": "Nellore", "state": "Andhra Pradesh", "lat": 14.4426, "lon": 79.9865},
  {"name": "Bhavnagar", "state": "Gujarat", "lat": 21.7645, "lon": 72.1519},
  {"name": "Dehradun", "state": "Uttarakhand", "lat": 30.3165, "lon": 78.0322},
  {"name": "Durgapur", "state": "West Bengal", "lat": 23.4846, "lon": 87.3105},
  {"name": "Asansol", "state": "West Bengal", "lat": 23.6739, "lon": 86.9524},
  {"name": "Rourkela", "state": "Odisha", "lat": 22.2604, "lon": 84.8536},
  {"name": "Nanded", "state": "Maharashtra", "lat": 19.1628, "lon": 77.3176},
  {"name": "Kolhapur", "state": "Maharashtra", "lat": 16.7050, "lon": 74.2433},
  {"name": "Ajmer", "state": "Rajasthan", "lat": 26.4499, "lon": 74.6399},
  {"name": "Gulbarga", "state": "Karnataka", "lat": 17.3297, "lon": 76.8343},
  {"name": "Jamnagar", "state": "Gujarat", "lat": 22.4707, "lon": 70.0577},
  {"name": "Ujjain", "state": "Madhya Pradesh", "lat": 23.1765, "lon": 75.7885},
  {"name": "Loni", "state": "Uttar Pradesh", "lat": 28.7500, "lon": 77.2800},
  {"name": "Siliguri", "state": "West Bengal", "lat": 26.7271, "lon": 88.3953},
  {"name": "Jhansi", "state": "Uttar Pradesh", "lat": 25.4484, "lon": 78.5685},
  {"name": "Ulhasnagar", "state": "Maharashtra", "lat": 19.2215, "lon": 73.1645},
  {"name": "Jammu", "state": "Jammu and Kashmir", "lat": 32.7266, "lon": 74.8570},
  {"name": "Sangli-Miraj & Kupwad", "state": "Maharashtra", "lat": 16.8524, "lon": 74.5815},
  {"name": "Mangalore", "state": "Karnataka", "lat": 12.9141, "lon": 74.8560},
  {"name": "Erode", "state": "Tamil Nadu", "lat": 11.3410, "lon": 77.7172},
  {"name": "Belgaum", "state": "Karnataka", "lat": 15.8497, "lon": 74.4977},
  {"name": "Ambattur", "state": "Tamil Nadu", "lat": 13.1143, "lon": 80.1481},
  {"name": "Tirunelveli", "state": "Tamil Nadu", "lat": 8.7139, "lon": 77.7567},
  {"name": "Malegaon", "state": "Maharashtra", "lat": 20.5517, "lon": 74.5083},
  {"name": "Gaya", "state": "Bihar", "lat": 24.7914, "lon": 85.0002},
  {"name": "Jalgaon", "state": "Maharashtra", "lat": 21.0077, "lon": 75.5626},
  {"name": "Udaipur", "state": "Rajasthan", "lat": 24.5854, "lon": 73.7125},
  {"name": "Maheshtala", "state": "West Bengal", "lat": 22.5100, "lon": 88.2500},
  {"name": "Davanagere", "state": "Karnataka", "lat": 14.4644, "lon": 75.9218},
  {"name": "Kozhikode", "state": "Kerala", "lat": 11.2588, "lon": 75.7804},
  {"name": "Akola", "state": "Maharashtra", "lat": 20.7002, "lon": 77.0082},
  {"name": "Kurnool", "state": "Andhra Pradesh", "lat": 15.8281, "lon": 78.0373},
  {"name": "Rajpur Sonarpur", "state": "West Bengal", "lat": 22.4400, "lon": 88.4300},
  {"name": "Rajahmundry", "state": "Andhra Pradesh", "lat": 17.0005, "lon": 81.8040},
  {"name": "Bokaro Steel City", "state": "Jharkhand", "lat": 23.6693, "lon": 86.1511},
  {"name": "South Dumdum", "state": "West Bengal", "lat": 22.6100, "lon": 88.4000},
  {"name": "Bellary", "state": "Karnataka", "lat": 15.1394, "lon": 76.9214},
  {"name": "Patiala", "state": "Punjab", "lat": 30.3398, "lon": 76.3869},
  {"name": "Gopalpur", "state": "West Bengal", "lat": 22.6000, "lon": 88.3500},
  {"name": "Agartala", "state": "Tripura", "lat": 23.8315, "lon": 91.2868},
  {"name": "Bhagalpur", "state": "Bihar", "lat": 25.2425, "lon": 87.0145},
  {"name": "Muzaffarnagar", "state": "Uttar Pradesh", "lat": 29.4727, "lon": 77.7085},
  {"name": "Bhatpara", "state": "West Bengal", "lat": 22.8700, "lon": 88.4100},
  {"name": "Panihati", "state": "West Bengal", "lat": 22.6900, "lon": 88.3700},
  {"name": "Latur", "state": "Maharashtra", "lat": 18.4088, "lon": 76.5604},
  {"name": "Dhule", "state": "Maharashtra", "lat": 20.9042, "lon": 74.7749},
  {"name": "Rohtak", "state": "Haryana", "lat": 28.8941, "lon": 76.6066},
  {"name": "Sagar", "state": "Madhya Pradesh", "lat": 23.8388, "lon": 78.7378},
  {"name": "Korba", "state": "Chhattisgarh", "lat": 22.3595, "lon": 82.7501},
  {"name": "Bhilwara", "state": "Rajasthan", "lat": 25.3413, "lon": 74.6366},
  {"name": "Berhampur", "state": "Odisha", "lat": 19.3150, "lon": 84.7941},
  {"name": "Muzaffarpur", "state": "Bihar", "lat": 26.1197, "lon": 85.3910},
  {"name": "Ahmednagar", "state": "Maharashtra", "lat": 19.0948, "lon": 74.7480},
  {"name": "Mathura", "state": "Uttar Pradesh", "lat": 27.4924, "lon": 77.6737},
  {"name": "Kollam", "state": "Kerala", "lat": 8.8932, "lon": 76.6141},
  {"name": "Avadi", "state": "Tamil Nadu", "lat": 13.1167, "lon": 80.1000},
  {"name": "Kadapa", "state": "Andhra Pradesh", "lat": 14.4673, "lon": 78.8242},
  {"name": "Kamarhati", "state": "West Bengal", "lat": 22.6700, "lon": 88.3700},
  {"name": "Sambalpur", "state": "Odisha", "lat": 21.4669, "lon": 83.9812},
  {"name": "Bilaspur", "state": "Chhattisgarh", "lat": 22.0774, "lon": 82.1397},
  {"name": "Shahjahanpur", "state": "Uttar Pradesh", "lat": 27.8833, "lon": 79.9167},
  {"name": "Satara", "state": "Maharashtra", "lat": 17.6805, "lon": 73.9914},
  {"name": "Bijapur", "state": "Karnataka", "lat": 16.8302, "lon": 75.7100},
  {"name": "Rampur", "state": "Uttar Pradesh", "lat": 28.8124, "lon": 79.0267},
  {"name": "Shimoga", "state": "Karnataka", "lat": 13.9299, "lon": 75.5681},
  {"name": "Chandrapur", "state": "Maharashtra", "lat": 19.9511, "lon": 79.2961},
  {"name": "Junagadh", "state": "Gujarat", "lat": 21.5222, "lon": 70.4579},
  {"name": "Thrissur", "state": "Kerala", "lat": 10.5276, "lon": 76.2144},
  {"name": "Alwar", "state": "Rajasthan", "lat": 27.5530, "lon": 76.6346},
  {"name": "Bardhaman", "state": "West Bengal", "lat": 23.2324, "lon": 87.8615},
  {"name": "Kulti", "state": "West Bengal", "lat": 23.7300, "lon": 86.8500},
  {"name": "Kakinada", "state": "Andhra Pradesh", "lat": 16.9891, "lon": 82.2475},
  {"name": "Nizamabad", "state": "Telangana", "lat": 18.6725, "lon": 78.0941},
  {"name": "Parbhani", "state": "Maharashtra", "lat": 19.2644, "lon": 76.7765},
  {"name": "Tumkur", "state": "Karnataka", "lat": 13.3392, "lon": 77.1140},
  {"name": "Khammam", "state": "Telangana", "lat": 17.2473, "lon": 80.1514},
  {"name": "Uzhavarkarai", "state": "Puducherry", "lat": 11.9500, "lon": 79.7667},
  {"name": "Bihar Sharif", "state": "Bihar", "lat": 25.1950, "lon": 85.5186},
  {"name": "Panvel", "state": "Maharashtra", "lat": 18.9894, "lon": 73.1175},
  {"name": "Darbhanga", "state": "Bihar", "lat": 26.1542, "lon": 85.8918},
  {"name": "Bally", "state": "West Bengal", "lat": 22.6500, "lon": 88.3400},
  {"name": "Aizawl", "state": "Mizoram", "lat": 23.7271, "lon": 92.7176},
  {"name": "Dewas", "state": "Madhya Pradesh", "lat": 22.9624, "lon": 76.0507},
  {"name": "Ichalkaranji", "state": "Maharashtra", "lat": 16.6917, "lon": 74.4572},
  {"name": "Karnal", "state": "Haryana", "lat": 29.6857, "lon": 76.9907},
  {"name": "Bathinda", "state": "Punjab", "lat": 30.2110, "lon": 74.9455},
  {"name": "Jalna", "state": "Maharashtra", "lat": 19.8410, "lon": 75.8864},
  {"name": "Eluru", "state": "Andhra Pradesh", "lat": 16.7107, "lon": 81.1035},
  {"name": "Barasat", "state": "West Bengal", "lat": 22.7239, "lon": 88.4806},
  {"name": "Kirari Suleman Nagar", "state": "Delhi", "lat": 28.7100, "lon": 77.0600},
  {"name": "Purnia", "state": "Bihar", "lat": 25.7771, "lon": 87.4753},
  {"name": "Satna", "state": "Madhya Pradesh", "lat": 24.6005, "lon": 80.8322},
  {"name": "Mau", "state": "Uttar Pradesh", "lat": 25.9416, "lon": 83.5601},
  {"name": "Sonipat", "state": "Haryana", "lat": 28.9931, "lon": 77.0151},
  {"name": "Farrukhabad", "state": "Uttar Pradesh", "lat": 27.3800, "lon": 79.5800},
  {"name": "Sagar", "state": "Madhya Pradesh", "lat": 23.8388, "lon": 78.7378},
  {"name": "Rourkela", "state": "Odisha", "lat": 22.2604, "lon": 84.8536},
  {"name": "Durg", "state": "Chhattisgarh", "lat": 21.1905, "lon": 81.2849},
  {"name": "Imphal", "state": "Manipur", "lat": 24.8170, "lon": 93.9368},
  {"name": "Ratlam", "state": "Madhya Pradesh", "lat": 23.3315, "lon": 75.0367},
  {"name": "Hapur", "state": "Uttar Pradesh", "lat": 28.7306, "lon": 77.7758},
  {"name": "Arrah", "state": "Bihar", "lat": 25.5562, "lon": 84.6603},
  {"name": "Anantapur", "state": "Andhra Pradesh", "lat": 14.6819, "lon": 77.6006},
  {"name": "Karimnagar", "state": "Telangana", "lat": 18.4386, "lon": 79.1288},
  {"name": "Etawah", "state": "Uttar Pradesh", "lat": 26.7855, "lon": 79.0224},
  {"name": "Ambernath", "state": "Maharashtra", "lat": 19.1825, "lon": 73.1926},
  {"name": "North Dumdum", "state": "West Bengal", "lat": 22.6500, "lon": 88.4200},
  {"name": "Bharatpur", "state": "Rajasthan", "lat": 27.2152, "lon": 77.4830},
  {"name": "Begusarai", "state": "Bihar", "lat": 25.4182, "lon": 86.1272},
  {"name": "New Delhi", "state": "Delhi", "lat": 28.6139, "lon": 77.2090},
  {"name": "Gandhidham", "state": "Gujarat", "lat": 23.0800, "lon": 70.1300},
  {"name": "Baranagar", "state": "West Bengal", "lat": 22.6400, "lon": 88.3700},
  {"name": "Tiruvottiyur", "state": "Tamil Nadu", "lat": 13.1600, "lon": 80.3000},
  {"name": "Pondicherry", "state": "Puducherry", "lat": 11.9416, "lon": 79.8083},
  {"name": "Sikar", "state": "Rajasthan", "lat": 27.6094, "lon": 75.1397},
  {"name": "Rewa", "state": "Madhya Pradesh", "lat": 24.5362, "lon": 81.3037},
  {"name": "Mirzapur", "state": "Uttar Pradesh", "lat": 25.1333, "lon": 82.5667},
  {"name": "Raichur", "state": "Karnataka", "lat": 16.2120, "lon": 77.3559},
  {"name": "Pali", "state": "Rajasthan", "lat": 25.7711, "lon": 73.3234},
  {"name": "Ramagundam", "state": "Telangana", "lat": 18.7500, "lon": 79.4800},
  {"name": "Haridwar", "state": "Uttarakhand", "lat": 29.9457, "lon": 78.1642},
  {"name": "Vijayanagaram", "state": "Andhra Pradesh", "lat": 18.1067, "lon": 83.3950},
  {"name": "Katihar", "state": "Bihar", "lat": 25.5500, "lon": 87.5667},
  {"name": "Nagercoil", "state": "Tamil Nadu", "lat": 8.1833, "lon": 77.4119},
  {"name": "Sri Ganganagar", "state": "Rajasthan", "lat": 29.9197, "lon": 73.8760},
  {"name": "Karaman", "state": "Rajasthan", "lat": 26.2300, "lon": 76.5100},
  {"name": "Bulandshahr", "state": "Uttar Pradesh", "lat": 28.4069, "lon": 77.8498},
  {"name": "Thanjavur", "state": "Tamil Nadu", "lat": 10.7870, "lon": 79.1378},
  {"name": "Pallavaram", "state": "Tamil Nadu", "lat": 12.9675, "lon": 80.1491},
  {"name": "Bidar", "state": "Karnataka", "lat": 17.9144, "lon": 77.5307},
  {"name": "Munger", "state": "Bihar", "lat": 25.3748, "lon": 86.4735},
  {"name": "Panchkula", "state": "Haryana", "lat": 30.6942, "lon": 76.8606},
  {"name": "Burhanpur", "state": "Madhya Pradesh", "lat": 21.3135, "lon": 76.2294},
  {"name": "Raurkela Industrial Township", "state": "Odisha", "lat": 22.2100, "lon": 84.8600},
  {"name": "Kharagpur", "state": "West Bengal", "lat": 22.3302, "lon": 87.3237},
  {"name": "Dindigul", "state": "Tamil Nadu", "lat": 10.3673, "lon": 77.9803},
  {"name": "Gandhinagar", "state": "Gujarat", "lat": 23.2156, "lon": 72.6369},
  {"name": "Hospet", "state": "Karnataka", "lat": 15.2689, "lon": 76.3909},
  {"name": "Nangloi Jat", "state": "Delhi", "lat": 28.6800, "lon": 77.0700},
  {"name": "Malda", "state": "West Bengal", "lat": 25.0108, "lon": 88.1411},
  {"name": "Ongole", "state": "Andhra Pradesh", "lat": 15.5057, "lon": 80.0499},
  {"name": "Deoghar", "state": "Jharkhand", "lat": 24.4924, "lon": 86.6900},
  {"name": "Chapra", "state": "Bihar", "lat": 25.7848, "lon": 84.7274},
  {"name": "Haldia", "state": "West Bengal", "lat": 22.0667, "lon": 88.0667},
  {"name": "Khandwa", "state": "Madhya Pradesh", "lat": 21.8257, "lon": 76.3526},
  {"name": "Nandyal", "state": "Andhra Pradesh", "lat": 15.4800, "lon": 78.4800},
  {"name": "Morena", "state": "Madhya Pradesh", "lat": 26.5000, "lon": 78.0000},
  {"name": "Amroha", "state": "Uttar Pradesh", "lat": 28.9044, "lon": 78.4678},
  {"name": "Anand", "state": "Gujarat", "lat": 22.5645, "lon": 72.9289},
  {"name": "Bhind", "state": "Madhya Pradesh", "lat": 26.5898, "lon": 78.7871},
  {"name": "Bhalswa Jahangir Pur", "state": "Delhi", "lat": 28.7300, "lon": 77.1500},
  {"name": "Madhyamgram", "state": "West Bengal", "lat": 22.6900, "lon": 88.4500},
  {"name": "Bhiwani", "state": "Haryana", "lat": 28.7833, "lon": 76.1333},
  {"name": "Berhampore", "state": "West Bengal", "lat": 24.1000, "lon": 88.2500},
  {"name": "Ambala", "state": "Haryana", "lat": 30.3782, "lon": 76.7767},
  {"name": "Morbi", "state": "Gujarat", "lat": 22.8100, "lon": 70.8300},
  {"name": "Fatehpur", "state": "Uttar Pradesh", "lat": 25.9300, "lon": 80.8100},
  {"name": "Raebareli", "state": "Uttar Pradesh", "lat": 26.2236, "lon": 81.2403},
  {"name": "Khas Hindustan", "state": "Jharkhand", "lat": 23.7000, "lon": 86.4000},
  {"name": "Bhowanipur", "state": "West Bengal", "lat": 22.5300, "lon": 88.3500},
  {"name": "Kayamkulam", "state": "Kerala", "lat": 9.1724, "lon": 76.5002},
  {"name": "Karaikudi", "state": "Tamil Nadu", "lat": 10.0734, "lon": 78.7733},
  {"name": "Chittoor", "state": "Andhra Pradesh", "lat": 13.2161, "lon": 79.1003},
  {"name": "Nadiad", "state": "Gujarat", "lat": 22.6916, "lon": 72.8634},
  {"name": "Udupi", "state": "Karnataka", "lat": 13.3409, "lon": 74.7421},
  {"name": "Baramati", "state": "Maharashtra", "lat": 18.1500, "lon": 74.5800},
  {"name": "Maval", "state": "Maharashtra", "lat": 18.7500, "lon": 73.5000},
  {"name": "Dahanu", "state": "Maharashtra", "lat": 19.9700, "lon": 72.7300},
  {"name": "Palghar", "state": "Maharashtra", "lat": 19.6981, "lon": 72.7651},
  {"name": "Borsad", "state": "Gujarat", "lat": 22.4100, "lon": 72.9000},
  {"name": "Kapadvanj", "state": "Gujarat", "lat": 23.0200, "lon": 73.0700},
  {"name": "Chas", "state": "Jharkhand", "lat": 23.6337, "lon": 86.1772, "pincode": "827013"},
  {"name": "Bokaro", "state": "Jharkhand", "lat": 23.6693, "lon": 86.1511, "pincode": "827001"}
]
